City,Lat,Lng,Max Temp,Humidity,Cloudiness,Wind Speed,Country,Date
Lebu,-37.6167,-73.65,13.57,74,0,4.89,CL,1619444329
Ovsyanka,55.9575,92.5519,9.0,46,0,2.0,RU,1619444330
Blagoyevo,63.3667,47.9167,6.95,71,100,2.01,RU,1619444330
Alta Floresta,-9.8756,-56.0861,24.0,100,90,1.54,BR,1619444330
Témiscaming,46.7212,-79.0971,-1.0,59,0,4.12,CA,1619444331
Atuona,-9.8,-139.0333,26.44,69,100,6.26,PF,1619444331
Jamestown,42.097,-79.2353,3.33,74,75,3.6,US,1619444208
Albany,42.6001,-73.9662,5.56,42,8,1.34,US,1619444127
Bambous Virieux,-20.3428,57.7575,26.0,78,75,7.2,MU,1619444331
Puerto Ayora,-0.7393,-90.3518,24.52,82,19,3.25,EC,1619444332
Wattegama,6.7989,81.4808,28.0,94,20,2.57,LK,1619444332
Busselton,-33.65,115.3333,16.11,86,100,1.22,AU,1619444333
Iqaluit,63.7506,-68.5145,1.0,86,90,1.54,CA,1619444333
Coquimbo,-29.9533,-71.3436,13.0,88,90,2.57,CL,1619444207
Ribeira Grande,38.5167,-28.7,18.0,72,20,5.14,PT,1619444333
Bluff,-46.6,168.3333,6.11,84,82,1.34,NZ,1619444334
Punta Arenas,-53.15,-70.9167,5.0,100,75,2.06,CL,1619444122
Totness,5.8833,-56.3167,26.32,85,100,3.85,SR,1619444334
Hilo,19.7297,-155.09,22.0,78,75,2.06,US,1619444334
Rikitea,-23.1203,-134.9692,25.05,75,11,2.4,PF,1619444335
Yakeshi,49.2833,120.7333,7.28,33,48,3.1,CN,1619444335
Abonnema,4.7084,6.7931,34.0,59,75,2.57,NG,1619444335
Bathsheba,13.2167,-59.5167,27.0,61,75,9.26,BB,1619444336
Tucumcari,35.1717,-103.725,16.0,14,1,3.6,US,1619444336
Muros,42.7762,-9.0603,17.22,85,30,4.92,ES,1619444336
Khatanga,71.9667,102.5,-9.16,91,100,4.77,RU,1619444337
Martinsville,36.6915,-79.8725,16.11,67,1,0.86,US,1619444337
Dargaville,-35.9333,173.8833,12.45,81,0,2.36,NZ,1619444338
Esperance,-33.8667,121.9,18.0,59,100,1.54,AU,1619444338
Airai,-8.9266,125.4092,13.43,75,9,0.81,TL,1619444338
Siedlce,52.1677,22.2901,9.44,46,97,6.35,PL,1619444338
Chui,-33.6971,-53.4616,19.12,54,10,5.62,UY,1619444339
Avarua,-21.2078,-159.775,22.0,100,54,1.03,CK,1619444339
Porto-Novo,6.4965,2.6036,32.0,70,40,5.66,BJ,1619444340
Shache,38.4167,77.2406,21.18,12,1,2.11,CN,1619444340
Ushuaia,-54.8,-68.3,5.0,87,75,1.54,AR,1619444228
Hithadhoo,-0.6,73.0833,28.63,63,15,2.31,MV,1619444340
Pierre,44.3683,-100.351,7.78,81,1,3.09,US,1619444336
Mountain Home,43.133,-115.6912,6.0,100,90,2.57,US,1619444341
Boa Vista,2.8197,-60.6733,26.0,83,75,3.6,BR,1619444341
Port Elizabeth,-33.918,25.5701,18.0,77,0,8.75,ZA,1619444342
Pokhara,28.2333,83.9833,24.3,16,1,3.44,NP,1619444342
Te Anau,-45.4167,167.7167,3.0,88,75,0.82,NZ,1619444342
Saint-Augustin,51.226,-58.6502,5.26,71,100,6.59,CA,1619444343
Yellowknife,62.456,-114.3525,-20.0,71,75,6.17,CA,1619444244
Borovskoy,53.8,64.15,12.49,29,100,5.19,KZ,1619444343
Grindavik,63.8424,-22.4338,8.0,66,0,1.54,IS,1619444343
Tasiilaq,65.6145,-37.6368,4.0,75,90,5.14,GL,1619444344
Port Alfred,-33.5906,26.891,26.28,57,100,5.49,ZA,1619444344
Kavieng,-2.5744,150.7967,27.69,74,97,1.37,PG,1619444344
Onguday,50.75,86.15,4.11,62,100,1.94,RU,1619444345
Zeya,53.75,127.2667,8.84,57,100,1.79,RU,1619444345
Haradok,55.4624,29.9816,4.0,56,75,4.0,BY,1619444345
Kapaa,22.0752,-159.319,23.0,73,90,4.12,US,1619444082
Saint-Philippe,-21.3585,55.7679,27.0,69,0,8.23,RE,1619444346
George Town,5.4112,100.3354,30.0,74,20,1.54,MY,1619444277
Morvi,22.8167,70.8333,41.0,12,40,2.57,IN,1619444346
Srednekolymsk,67.45,153.6833,-15.66,93,29,2.05,RU,1619444347
Kalmunai,7.4167,81.8167,28.34,73,97,5.55,LK,1619444347
Cap-aux-Meules,47.3821,-61.8597,5.0,100,100,10.8,CA,1619444347
Río Gallegos,-51.6226,-69.2181,8.0,76,40,2.06,AR,1619444274
Mahébourg,-20.4081,57.7,26.0,78,75,7.2,MU,1619444348
Mataura,-46.1927,168.8643,6.11,84,100,1.34,NZ,1619444348
Santiago del Estero,-27.7951,-64.2615,18.02,54,0,2.63,AR,1619444348
Agropoli,40.3469,14.9966,22.78,53,0,1.54,IT,1619444349
Alvarães,-3.2208,-64.8042,26.0,94,40,1.54,BR,1619444349
Leningradskiy,69.3833,178.4167,-7.52,94,100,1.88,RU,1619444349
Upernavik,72.7868,-56.1549,2.44,86,100,2.4,GL,1619444350
Taoudenni,22.6783,-3.9836,41.1,8,58,2.3,ML,1619444350
Mar del Plata,-38.0023,-57.5575,16.11,72,20,2.06,AR,1619444350
Québec,46.8123,-71.2145,0.0,56,100,2.57,CA,1619444101
Saint Paul Harbor,57.79,-152.4072,6.0,70,20,5.14,US,1619444351
Faya,18.3851,42.4509,15.0,88,75,9.26,SA,1619444351
Bukama,-9.2,25.85,28.8,64,73,0.9,CD,1619444351
Ituango,7.1712,-75.764,22.32,74,87,0.5,CO,1619444352
Kruisfontein,-34.0033,24.7314,20.0,73,100,1.79,ZA,1619444352
Camacha,33.0833,-16.3333,19.0,72,40,7.72,PT,1619444352
Torbay,47.6666,-52.7314,10.0,46,90,10.8,CA,1619444130
Kiryat Gat,31.61,34.7642,20.0,40,20,6.55,IL,1619444353
Mossamedes,-15.1961,12.1522,30.0,58,20,5.14,AO,1619444353
Batouri,4.4333,14.3667,35.44,29,37,2.02,CM,1619444353
Cape Town,-33.9258,18.4232,20.0,64,75,6.17,ZA,1619444268
Haines Junction,60.7522,-137.5108,-4.0,86,1,0.51,CA,1619444354
Aklavik,68.2191,-135.0107,-12.0,85,92,3.6,CA,1619444354
Tālcher,20.95,85.2167,31.53,37,95,4.92,IN,1619444354
Port Hedland,-20.3167,118.5667,22.0,68,0,2.06,AU,1619444355
Vicuña,-30.0319,-70.7081,13.0,88,90,2.57,CL,1619444355
Kananga,-5.8958,22.4178,28.47,60,51,1.06,CD,1619444355
Lagoa,39.05,-27.9833,15.68,77,99,3.01,PT,1619444356
Butaritari,3.0707,172.7902,28.35,75,96,6.61,KI,1619444356
Talnakh,69.4865,88.3972,-11.16,88,100,3.77,RU,1619444356
Rosario,-32.9468,-60.6393,18.89,67,0,0.75,AR,1619444061
Sisimiut,66.9395,-53.6735,6.86,59,100,1.79,GL,1619444357
Hals,56.9961,10.3081,10.56,34,75,3.6,DK,1619444357
Millinocket,45.6573,-68.7098,3.0,81,90,7.2,US,1619444357
River Falls,44.8614,-92.6238,4.44,83,100,3.58,US,1619444358
Alpena,45.0617,-83.4327,2.0,55,90,4.63,US,1619444358
Kapiri Mposhi,-13.9652,28.6809,25.75,44,77,2.28,ZM,1619444358
Barranca,-10.75,-77.7667,19.58,83,32,3.4,PE,1619444359
Padang,-0.9492,100.3543,27.0,89,40,1.03,ID,1619444359
Warrington,53.3925,-2.5802,15.56,47,0,2.06,GB,1619444359
Kaitangata,-46.2817,169.8464,6.67,66,88,3.13,NZ,1619444360
Arica,-18.475,-70.3042,19.0,59,0,1.54,CL,1619444360
Port Hardy,50.6996,-127.4199,6.0,100,40,2.06,CA,1619444360
Bama,11.5221,13.6856,41.74,12,62,4.15,NG,1619444361
Teguise,29.0605,-13.564,25.0,47,40,7.72,ES,1619444361
Zhicheng,30.2956,111.5047,15.56,86,68,0.85,CN,1619444362
Udachny,66.4167,112.4,-13.0,86,86,6.34,RU,1619444362
Lompoc,34.6391,-120.4579,9.0,93,7,2.08,US,1619444362
Idenao,4.2475,9.0047,31.0,66,20,4.63,CM,1619444362
Okhotsk,59.3833,143.3,-6.62,79,43,1.44,RU,1619444363
Barrow,71.2906,-156.7887,-12.0,79,1,6.17,US,1619444255
Saldanha,-33.0117,17.9442,18.0,77,17,7.72,ZA,1619444363
Nanortalik,60.1432,-45.2371,1.06,99,100,3.33,GL,1619444364
Senhor do Bonfim,-10.4614,-40.1894,28.94,49,94,4.05,BR,1619444319
Itarema,-2.9248,-39.9167,29.78,62,23,5.08,BR,1619444364
Tiksi,71.6872,128.8694,-7.15,95,100,5.25,RU,1619444364
East London,-33.0153,27.9116,25.0,61,0,3.6,ZA,1619444365
Bredasdorp,-34.5322,20.0403,21.0,60,0,4.63,ZA,1619444365
Namatanai,-3.6667,152.4333,26.37,80,6,1.38,PG,1619444365
Yaan,7.3833,8.5667,37.7,32,72,1.88,NG,1619444366
Jambi City,-1.6,103.6167,24.03,94,9,0.9,ID,1619444192
Walvis Bay,-22.9575,14.5053,26.0,44,0,6.69,NA,1619444366
Vangaindrano,-23.35,47.6,23.69,88,68,2.69,MG,1619444367
Yulara,-25.2406,130.9889,19.0,27,0,5.14,AU,1619444367
Takanosu,40.2219,140.3694,5.0,80,20,3.09,JP,1619444367
Mount Isa,-20.7333,139.5,27.0,29,40,5.66,AU,1619444368
Kudahuvadhoo,2.6708,72.8944,28.7,70,93,2.84,MV,1619444368
Lüderitz,-26.6481,15.1594,20.41,75,25,4.85,NA,1619444368
Omboué,-1.5746,9.2618,29.41,72,84,4.55,GA,1619444369
Haysville,37.5645,-97.3523,18.89,94,1,9.77,US,1619444369
Gorontalo,0.5412,123.0595,24.52,91,99,1.12,ID,1619444369
Saskylakh,71.9167,114.0833,-18.2,100,71,3.05,RU,1619444370
Cayenne,4.9333,-52.3333,26.0,94,75,2.06,GF,1619444370
Ancud,-41.8697,-73.8203,13.89,100,75,2.57,CL,1619444370
Carnarvon,-24.8667,113.6333,21.0,83,0,2.06,AU,1619444371
Hobart,-42.8794,147.3294,12.0,71,20,3.09,AU,1619444188
Castro,-24.7911,-50.0119,20.29,65,3,0.6,BR,1619444156
Ereymentau,51.6199,73.1033,11.41,67,100,6.09,KZ,1619444371
Vidim,56.4088,103.1106,-1.09,87,99,3.42,RU,1619444372
Ushtobe,45.2514,77.9838,16.9,34,56,4.59,KZ,1619444372
Flinders,-34.5833,150.8552,13.33,83,10,0.45,AU,1619444372
Arraial do Cabo,-22.9661,-42.0278,25.0,94,75,2.06,BR,1619444372
Burgeo,47.6167,-57.6152,5.86,87,100,14.46,CA,1619444373
Ampanihy,-24.7,44.75,28.03,49,46,6.4,MG,1619444373
Bayan,46.0833,127.4,12.87,31,100,3.73,CN,1619444373
Roald,62.5833,6.1333,8.0,42,0,3.6,NO,1619444374
Sittwe,20.15,92.9,28.18,77,5,2.52,MM,1619444374
Tilichiki,60.4667,166.1,-1.19,99,100,1.29,RU,1619444374
Dikson,73.5069,80.5464,-0.1,98,100,8.66,RU,1619444375
Gariāband,20.635,82.0614,35.0,16,75,2.57,IN,1619444375
Changchun,43.88,125.3228,19.0,12,0,6.0,CN,1619444375
Zlobin,45.2924,14.6541,16.0,41,0,1.54,HR,1619444376
Taunggyi,20.7833,97.0333,18.59,81,90,1.69,MM,1619444376
Palmer,42.1584,-72.3287,6.67,45,40,8.75,US,1619444377
Nome,64.5011,-165.4064,3.0,75,90,2.66,US,1619444377
Ambilobe,-13.2,49.05,27.13,78,34,0.6,MG,1619444377
Severo-Kuril'sk,50.6789,156.125,-1.23,94,100,8.72,RU,1619444378
Kidal,18.4411,1.4078,41.24,4,95,3.75,ML,1619444378
Ponta do Sol,32.6667,-17.1,18.33,85,37,1.34,PT,1619444378
Vaini,-21.2,-175.2,25.0,94,75,2.57,TO,1619444379
Awjilah,29.1081,21.2869,27.66,19,0,3.44,LY,1619444379
Hermanus,-34.4187,19.2345,22.78,59,6,0.89,ZA,1619444118
Lastoursville,-0.8143,12.7287,33.87,45,70,1.26,GA,1619444379
Krasnyy Yar,46.5331,48.3456,16.0,39,0,6.0,RU,1619444380
Jhūsi,25.4333,81.9333,34.59,6,32,3.13,IN,1619444380
Tabuleiro do Norte,-5.2467,-38.1306,32.58,46,16,4.2,BR,1619444380
Inhambane,-23.865,35.3833,28.89,69,40,4.12,MZ,1619444381
Panguipulli,-39.6333,-72.3333,9.0,100,90,0.24,CL,1619444381
Zigong,29.3416,104.7769,19.35,76,86,2.95,CN,1619444381
Sarkand,45.41,79.9186,12.7,57,56,1.94,KZ,1619444382
Nikolskoye,59.7035,30.7861,5.0,87,75,4.0,RU,1619444382
Dzerzhinskoye,56.8344,95.2283,2.31,97,100,1.86,RU,1619444383
Phetchaburi,12.9667,99.5833,28.33,99,99,1.68,TH,1619444383
Katsuura,35.1333,140.3,13.0,58,20,4.63,JP,1619444383
Caravelas,-17.7125,-39.2481,29.57,57,76,3.89,BR,1619444384
Chokurdakh,70.6333,147.9167,-4.94,94,100,2.77,RU,1619444384
Casper,42.8666,-106.3131,6.0,65,1,3.6,US,1619444280
Arona,28.0996,-16.681,22.0,64,40,4.12,ES,1619444384
Ishigaki,24.3448,124.1572,22.79,64,14,5.08,JP,1619444385
Hailar,49.2,119.7,9.13,20,0,5.49,CN,1619444385
Shīeli,44.1667,66.75,23.71,13,3,6.62,KZ,1619444385
Krasnogvardeyets,52.6804,52.3635,12.29,42,100,2.48,RU,1619444385
Los Llanos de Aridane,28.6585,-17.9182,22.0,64,75,2.57,ES,1619444386
Santa María del Oro,25.9333,-105.3667,17.43,23,100,2.48,MX,1619444386
Pangnirtung,66.1451,-65.7125,3.0,87,90,3.09,CA,1619444387
Orlik,52.5178,99.825,-6.24,85,38,1.01,RU,1619444387
Zaysan,47.4667,84.8667,9.01,34,82,1.1,KZ,1619444387
Thompson,55.7435,-97.8558,-4.0,100,90,1.54,CA,1619444387
Jerantut,3.936,102.3626,23.85,96,100,0.87,MY,1619444388
Nouadhibou,20.931,-17.0347,24.0,57,0,6.69,MR,1619444388
Mount Gambier,-37.8333,140.7667,12.0,94,90,1.54,AU,1619444389
Kloulklubed,7.0419,134.2556,26.0,89,75,2.06,PW,1619444389
São João da Barra,-21.6403,-41.0511,27.0,78,75,0.9,BR,1619444389
Ostrovnoy,68.0531,39.5131,-0.53,84,100,9.99,RU,1619444389
Lorengau,-2.0226,147.2712,27.25,76,100,0.7,PG,1619444390
Maun,-19.9833,23.4167,31.0,23,0,4.12,BW,1619444390
Hong Kong,22.2855,114.1577,23.89,83,100,0.45,HK,1619444357
Zhezkazgan,47.8043,67.7144,19.01,33,61,4.41,KZ,1619444390
Kanhangad,12.3081,75.1063,28.67,79,12,1.5,IN,1619444391
Portobelo,9.55,-79.65,27.78,78,20,2.57,PA,1619444211
Yarmouth,41.7057,-70.2286,10.0,57,1,6.69,US,1619444153
Sitka,57.0531,-135.33,4.0,75,1,1.54,US,1619444391
Doha,25.2867,51.5333,32.22,51,100,5.66,QA,1619444392
Uruçuí,-7.2294,-44.5561,30.38,59,87,2.49,BR,1619444392
Puerto Escondido,15.85,-97.0667,25.0,83,20,1.53,MX,1619444393
Sakakah,29.9697,40.2064,38.0,5,0,7.2,SA,1619444393
Cartagena del Chairá,1.3349,-74.8429,25.84,84,100,0.56,CO,1619444393
Kahului,20.8947,-156.47,20.56,94,1,4.96,US,1619444394
Cabo San Lucas,22.8909,-109.9124,18.0,45,20,6.69,MX,1619444386
Inuvik,68.3499,-133.7218,-12.0,85,94,3.6,CA,1619444394
Camapuã,-19.5314,-54.0439,26.54,58,59,1.38,BR,1619444395
Abashiri,44.0213,144.2697,-0.58,71,33,2.92,JP,1619444395
Jieshi,22.8134,115.8257,22.44,79,100,6.92,CN,1619444395
Souillac,-20.5167,57.5167,26.0,78,75,7.2,MU,1619444396
Petropavlovsk-Kamchatskiy,53.0452,158.6483,2.0,100,90,2.0,RU,1619444396
Dzhebariki-Khaya,62.2167,135.8,-0.51,98,100,2.61,RU,1619444396
Luohe,33.5717,114.0353,13.1,82,98,3.5,CN,1619444397
Dukat,62.55,155.55,-19.23,98,15,2.07,RU,1619444397
Cherskiy,68.75,161.3,-15.46,96,52,2.43,RU,1619444397
Vanavara,60.34,102.2797,-7.07,85,7,1.47,RU,1619444398
Marsh Harbour,26.5412,-77.0636,24.08,80,2,7.72,BS,1619444129
Koslan,63.4564,48.8989,6.4,72,100,1.13,RU,1619444398
Codrington,-38.2667,141.9667,13.75,74,98,1.98,AU,1619444398
Ust'-Uda,54.1742,103.0304,1.35,96,99,3.39,RU,1619444399
Ndélé,8.4109,20.6473,36.26,27,26,2.65,CF,1619444399
Faanui,-16.4833,-151.75,26.7,70,0,1.16,PF,1619444399
Takoradze,4.8845,-1.7554,30.24,69,43,4.86,GH,1619444400
Sarankhola,22.3082,89.7897,28.44,67,1,4.8,BD,1619444400
Lavrentiya,65.5833,-171.0,-7.2,80,56,2.77,RU,1619444401
Saint-Pierre,-21.3393,55.4781,27.0,69,0,8.23,RE,1619444401
Örnsköldsvik,63.2909,18.7153,7.0,29,75,3.6,SE,1619444401
Andenes,69.3143,16.1194,2.0,87,75,4.12,NO,1619444404
‘Ewa Beach,21.3156,-158.0072,23.0,73,1,1.54,US,1619444398
Mehamn,71.0357,27.8492,2.0,64,75,5.14,NO,1619444405
Praia,14.9215,-23.5087,25.0,57,20,9.26,CV,1619444239
Norman Wells,65.282,-126.8329,-11.0,67,90,4.12,CA,1619444405
Bethel,41.3712,-73.414,7.0,49,40,5.14,US,1619444406
Vitim,59.4511,112.5578,-6.19,90,88,2.6,RU,1619444406
Beringovskiy,63.05,179.3167,-5.44,96,58,1.88,RU,1619444406
Olafsvik,64.8945,-23.7142,5.0,66,11,4.78,IS,1619444407
Vila Franca do Campo,37.7167,-25.4333,18.0,68,75,4.63,PT,1619444407
Turukhansk,65.8167,87.9833,-5.95,91,31,1.12,RU,1619444407
Aroeiras,-7.5453,-35.7075,28.0,57,40,5.66,BR,1619444408
Balagansk,54.0103,103.0544,1.64,95,99,4.27,RU,1619444408
Asău,46.4333,26.4,7.22,45,42,1.06,RO,1619444408
Orimattila,60.8049,25.7296,4.44,96,100,1.34,FI,1619444409
Mayahi,13.9553,7.6712,42.08,6,15,5.03,NE,1619444409
Port Hueneme,34.1478,-119.1951,11.11,82,75,2.56,US,1619444409
Quesnel,52.9999,-122.5029,-5.0,86,1,1.49,CA,1619444394
Provideniya,64.3833,-173.3,-0.32,93,80,0.49,RU,1619444410
Dwārka,22.2394,68.9678,28.26,74,0,7.2,IN,1619444410
Chernoyerkovskaya,45.4331,37.7686,11.0,71,75,6.0,RU,1619444410
San Patricio,28.017,-97.5169,24.44,88,90,4.63,US,1619444411
Shimoda,34.6667,138.95,8.89,69,20,1.92,JP,1619444411
Guerrero Negro,27.9769,-114.0611,15.39,71,100,3.13,MX,1619444411
Jiexiu,37.0244,111.9125,14.61,15,28,2.66,CN,1619444412
Samarai,-10.6167,150.6667,27.82,76,99,2.89,PG,1619444412
New Norfolk,-42.7826,147.0587,10.0,81,33,1.42,AU,1619444412
Hasaki,35.7333,140.8333,10.0,66,20,1.54,JP,1619444413
Vostok,46.4856,135.8833,1.47,50,26,2.52,RU,1619444413
Resistencia,-27.4606,-58.9839,18.89,77,0,2.57,AR,1619444413
Broome,42.2506,-75.833,1.67,69,90,6.69,US,1619444312
Gōtsuchō,35.0,132.2167,9.59,56,100,3.14,JP,1619444414
Longyearbyen,78.2186,15.6401,-5.0,58,20,5.66,SJ,1619444183
Klaksvík,62.2266,-6.589,9.0,81,75,6.69,FO,1619444414
Adrar,20.5022,-10.0711,36.2,12,5,0.41,MR,1619444414
Toma,12.7667,-2.8833,40.32,17,63,2.53,BF,1619444415
Matamoros,25.5333,-103.25,22.22,30,75,0.33,MX,1619444415
Ugoofaaru,5.6667,73.0,29.06,71,14,2.25,MV,1619444415
Ust'-Karsk,52.7011,118.8077,9.21,87,100,1.69,RU,1619444415
Geraldton,-28.7667,114.6,18.0,68,97,2.57,AU,1619444416
Torata,-17.0769,-70.8433,18.12,21,0,1.8,PE,1619444416
Opuwo,-18.0607,13.84,30.67,18,5,3.54,NA,1619444416
Urucará,-2.5364,-57.76,27.07,90,100,1.85,BR,1619444417
Guía de Isora,28.2115,-16.7795,22.0,64,40,4.12,ES,1619444417
College,64.8569,-147.8028,0.56,80,20,1.54,US,1619444417
Vieques,18.425,-65.8329,27.22,65,40,1.54,PR,1619444418
Vestmannaeyjar,63.4427,-20.2734,8.0,76,0,4.12,IS,1619444418
Nemuro,43.3236,145.575,0.48,68,5,6.11,JP,1619444419
Tuktoyaktuk,69.4541,-133.0374,-18.0,85,75,4.12,CA,1619444419
Leeuwarden,53.2014,5.8086,9.44,57,75,5.66,NL,1619444419
Eydhafushi,5.1033,73.0708,29.15,70,12,2.29,MV,1619444420
Chokwé,-24.5333,32.9833,31.41,31,0,0.93,MZ,1619444420
Verāval,20.9,70.3667,28.5,71,0,5.46,IN,1619444420
San Quintín,30.4833,-115.95,13.85,85,100,2.35,MX,1619444421
Tamale,9.4008,-0.8393,38.48,30,4,1.62,GH,1619444421
Belaya Gora,68.5333,146.4167,-13.98,91,26,2.79,RU,1619444421
Bitkine,11.9801,18.2138,39.69,14,59,4.16,TD,1619444422
Labuhan,-6.8844,112.2051,26.76,80,9,3.25,ID,1619444422
Sobolevo,54.4299,31.8996,5.87,48,100,3.78,RU,1619444422
Dunedin,-45.8742,170.5036,6.67,69,99,6.71,NZ,1619444422
Yenagoa,4.9247,6.2642,35.12,43,56,1.94,NG,1619444423
Hamilton,39.1834,-84.5333,13.33,54,1,3.09,US,1619443949
Lampazos de Naranjo,27.0167,-100.5167,23.95,70,100,3.05,MX,1619444423
Malanje,-9.5402,16.341,26.88,53,76,2.31,AO,1619444424
Saint George,37.1041,-113.5841,16.11,29,20,2.57,US,1619444424
Visnes,59.3556,5.2242,8.0,61,20,7.72,NO,1619444424
Yārāda,17.65,83.2667,30.0,74,20,3.6,IN,1619444425
Dingle,10.9995,122.6711,25.62,80,62,2.74,PH,1619444425
Ipixuna,-1.7625,-48.8043,29.0,74,40,4.12,BR,1619444425
Huicungo,-7.2833,-76.8,24.0,88,90,0.36,PE,1619444426
Tuatapere,-46.1333,167.6833,6.11,83,100,1.34,NZ,1619444426
Adana Province,36.985,35.2881,24.0,68,40,6.69,TR,1619444426
Nishihara,26.1842,127.7558,21.0,60,1,2.57,JP,1619444427
Miraflores,19.2167,-98.8083,16.0,59,40,2.06,MX,1619444427
LaBelle,26.7617,-81.4384,25.0,78,1,2.06,US,1619444427
Emmett,43.8735,-116.4993,6.67,87,100,2.28,US,1619444427
Salalah,17.0151,54.0924,30.0,66,20,6.17,OM,1619444428
Narsaq,60.9167,-46.05,6.0,70,75,6.17,GL,1619444428
Longkou,37.6508,120.3286,11.63,93,100,4.03,CN,1619444429
Qaanaaq,77.484,-69.3632,2.28,68,37,3.86,GL,1619444429
Cidreira,-30.1811,-50.2056,19.3,66,61,6.07,BR,1619444429
Matara,5.9485,80.5353,27.06,81,54,2.03,LK,1619444429
Acaraú,-2.8856,-40.12,29.45,63,28,4.76,BR,1619444430
Ryōtsu-minato,38.0833,138.4333,6.06,58,2,1.47,JP,1619444430
Bereda,43.2686,-7.5406,18.33,69,91,0.89,ES,1619444431
San Juan,-31.5375,-68.5364,19.82,44,0,1.03,AR,1619444355
Jacareacanga,-6.2222,-57.7528,24.0,94,90,1.03,BR,1619444431
Kirakira,-10.4544,161.9205,26.21,84,100,2.34,SB,1619444431
Port Blair,11.6667,92.75,28.0,74,46,2.81,IN,1619444432
Colesberg,-30.72,25.0972,24.88,15,100,5.85,ZA,1619444432
Salamiyah,35.0113,37.0532,21.2,37,0,12.0,SY,1619444432
Adra,36.7496,-3.0206,21.11,77,0,8.75,ES,1619444433
Havøysund,70.9963,24.6622,2.0,64,75,5.66,NO,1619444433
Dicabisagan,17.0818,122.4157,24.18,84,99,3.17,PH,1619444433
Bol'shoye Selo,57.7177,38.9334,5.7,68,91,5.02,RU,1619444434
Moorhead,46.8739,-96.7676,3.0,81,90,2.06,US,1619444434
Mercedes,-34.6515,-59.4307,18.33,80,65,1.34,AR,1619444434
Kerema,-7.9631,145.7785,25.56,88,100,1.03,PG,1619444435
Snezhnogorsk,69.1933,33.2531,3.0,60,40,3.0,RU,1619444435
Crato,-7.2342,-39.4094,30.56,50,93,2.13,BR,1619444435
Jalu,29.0331,21.5482,27.68,19,0,3.63,LY,1619444436
Luanda,-8.8368,13.2343,31.0,66,20,6.17,AO,1619444344
Daru,-9.0763,143.2092,25.32,86,100,1.73,PG,1619444436
Carballo,43.213,-8.691,16.11,88,99,2.68,ES,1619444436
Batagay-Alyta,67.8006,130.4114,-4.16,98,100,0.9,RU,1619444437
Dhidhdhoo,6.8833,73.1,29.58,70,19,2.91,MV,1619444437
Severomuysk,56.1481,113.4267,-10.39,87,100,2.89,RU,1619444437
São Filipe,14.8961,-24.4956,22.48,74,26,5.19,CV,1619444438
Kapchorwa,1.3965,34.4509,18.31,82,83,1.01,UG,1619444438
Ganta,7.3022,-8.5308,34.61,38,47,1.4,LR,1619444438
Mwinilunga,-11.7358,24.4293,22.78,69,23,2.21,ZM,1619444439
Taltal,-25.4,-70.4833,18.85,69,0,2.3,CL,1619444439
Bobo-Dioulasso,11.1771,-4.2979,35.0,49,20,2.57,BF,1619444439
Ilo,-17.6394,-71.3375,21.0,78,0,6.17,PE,1619444440
Port Augusta,-32.5,137.7667,15.0,82,7,2.06,AU,1619444440
Kataysk,56.289,62.5841,11.02,33,66,7.3,RU,1619444440
Babaeski,41.4325,27.0931,17.16,45,0,1.78,TR,1619444441
Kasongo-Lunda,-6.4667,16.8167,30.21,59,96,1.45,CD,1619444441
Constitución,-35.3333,-72.4167,16.43,56,0,2.35,CL,1619444441
Atherton,53.5237,-2.4935,16.11,50,100,0.45,GB,1619444442
Salug,8.1147,122.7833,26.04,80,25,1.18,PH,1619444442
Ahtopol,42.1,27.95,16.0,55,20,7.2,BG,1619444442
Deputatsky,69.3,139.9,-8.26,91,100,1.26,RU,1619444443
Coyhaique,-45.5752,-72.0662,11.0,66,75,2.06,CL,1619444443
Clyde River,70.4692,-68.5914,-5.0,100,90,1.56,CA,1619444444
Salinópolis,-0.6136,-47.3561,29.02,68,92,3.7,BR,1619444444
Camargo,27.6667,-105.1667,20.82,13,100,2.05,MX,1619444444
Bouna,9.2667,-3.0,37.98,30,98,2.25,CI,1619444445
Ballina,-28.8667,153.5667,17.0,82,90,2.06,AU,1619444445
Santa Cruz do Capibaribe,-7.9575,-36.2047,32.12,35,31,4.37,BR,1619444445
Kozachi Laheri,46.7037,32.9776,12.0,58,40,8.0,UA,1619444446
Tavda,58.0425,65.2726,9.67,39,74,4.4,RU,1619444446
Gospić,44.5461,15.3747,16.0,59,0,3.09,HR,1619444446
San Luis,-33.295,-66.3356,18.9,50,0,3.53,AR,1619444391
Zinder,13.8072,8.9881,43.0,14,20,2.57,NE,1619444447
Hirara,24.8,125.2833,22.22,64,99,5.54,JP,1619444447
Cabedelo,-6.9811,-34.8339,30.0,70,40,4.12,BR,1619444447
Terra Santa,-2.1042,-56.4869,27.0,87,100,2.29,BR,1619444448
Lavras,-21.2453,-44.9997,25.15,47,19,0.53,BR,1619444448
Pevek,69.7008,170.3133,-9.62,95,100,1.2,RU,1619444448
Stornoway,58.2093,-6.3865,9.44,93,75,6.69,GB,1619444449
Govlyar,40.948,45.735,20.0,52,75,2.06,AZ,1619444449
Çayeli,41.0923,40.7292,10.8,93,100,4.93,TR,1619444449
Saint Anthony,45.0205,-93.218,5.0,93,90,5.14,US,1619444450
Acapulco de Juárez,16.8634,-99.8901,24.0,88,20,0.56,MX,1619444450
Half Moon Bay,37.4636,-122.4286,8.89,100,90,1.49,US,1619444450
Syas'stroy,60.1367,32.5691,3.91,94,100,1.28,RU,1619444451
Kapit,2.0167,112.9333,24.22,94,81,0.15,MY,1619444451
Tocopilla,-22.092,-70.1979,21.54,58,0,3.09,CL,1619444451
Cooma,-36.2333,149.1333,3.0,100,0,3.09,AU,1619444452
Kieta,-6.2167,155.6333,26.6,83,15,1.17,PG,1619444452
Camopi,3.1655,-52.3158,26.5,90,79,1.27,GF,1619444452
Mayumba,-3.432,10.6554,28.75,72,86,4.04,GA,1619444453
Umluj,25.0213,37.2685,29.12,50,0,2.73,SA,1619444453
Morón,-34.6534,-58.6198,17.22,88,0,1.54,AR,1619444453
Sorong,-0.8833,131.25,26.73,81,79,1.87,ID,1619444454
Yar-Sale,66.8333,70.8333,1.6,91,100,7.06,RU,1619444454
Cockburn Town,21.4612,-71.1419,26.05,71,65,5.19,TC,1619444454
Pisco,-13.7,-76.2167,18.0,94,40,1.54,PE,1619444455
Slobodskoy,58.7322,50.1772,1.95,97,100,5.81,RU,1619444455
General MacArthur,11.2464,125.5394,23.83,84,5,2.3,PH,1619444455
Fujin,47.26,132.0322,9.73,34,45,3.65,CN,1619444456
Khani,41.9563,42.9566,11.0,93,90,6.69,GE,1619444456
Harbour Breton,47.4833,-55.7983,6.34,74,100,9.99,CA,1619444456
Kita,13.0349,-9.4895,42.5,14,65,1.75,ML,1619444457
Minudasht,37.2289,55.3747,28.0,51,75,2.06,IR,1619444457
Truckee,39.328,-120.1833,-5.56,92,1,1.54,US,1619444238
Laguna,38.421,-121.4238,6.11,93,1,2.06,US,1619444457
Quthing,-30.4,27.7003,21.36,23,98,1.78,LS,1619444458
Coahuayana Viejo,18.7333,-103.6833,22.0,60,40,0.76,MX,1619444458
Okha,53.5739,142.9478,-4.46,86,5,3.29,RU,1619444458
Buala,-8.145,159.5921,27.0,82,48,2.19,SB,1619444459
Berbera,10.4396,45.0143,30.67,63,99,4.3,SO,1619444459
Sucúa,-2.4667,-78.1667,19.0,100,90,1.03,EC,1619444460
Yagodnoye,62.55,149.6667,-20.6,93,5,2.17,RU,1619444460
Nyurba,63.2842,118.3319,-6.15,80,93,4.12,RU,1619444460
Tungor,53.3808,142.9564,-5.29,87,7,3.15,RU,1619444461
Ciudad Bolivar,8.1222,-63.5497,29.58,56,100,4.43,VE,1619444461
Goiatuba,-18.0125,-49.3547,27.63,35,52,0.99,BR,1619444462
Veinticinco de Mayo,-35.4323,-60.1727,16.67,63,0,0.45,AR,1619444462
Nenagh,52.8619,-8.1967,17.78,44,20,2.06,IE,1619444462
Sangmélima,2.9333,11.9833,29.09,57,100,0.72,CM,1619444463
Orchard Homes,46.8633,-114.0484,1.0,100,90,1.54,US,1619444463
Waingapu,-9.6567,120.2641,23.95,72,25,4.16,ID,1619444463
Skjervøy,70.0311,20.9714,1.0,86,40,2.57,NO,1619444464
Ayan,56.45,138.1667,-3.45,92,97,0.87,RU,1619444464
Trofors,65.5333,13.4063,4.0,60,75,3.09,NO,1619444464
Clifton,40.8584,-74.1638,8.33,52,1,5.14,US,1619444465
Altamira,-3.2033,-52.2064,27.0,89,75,3.09,BR,1619444465
Sidi Ali,36.0998,0.4206,19.87,57,7,4.88,DZ,1619444465
Nago,26.5881,127.9761,21.0,72,1,2.57,JP,1619444466
Taku,39.0211,117.6469,12.0,71,0,3.0,CN,1619444466
Novi Pazar,43.1367,20.5122,17.38,46,100,2.56,RS,1619444466
Hualmay,-11.0964,-77.6139,20.24,81,13,3.63,PE,1619444467
Chernyshevskiy,63.0128,112.4714,-9.67,81,85,3.51,RU,1619444467
Warwick,41.7001,-71.4162,9.44,46,20,8.23,US,1619444303
Touros,-5.1989,-35.4608,28.0,74,75,4.12,BR,1619444467
Pamekasan,-7.1568,113.4746,26.44,80,21,3.36,ID,1619444468
Salmās,38.1973,44.7653,22.0,35,40,3.09,IR,1619444468
Kholm,59.2667,32.85,1.1,98,100,2.59,RU,1619444468
Coria,39.9879,-6.5377,21.26,47,32,2.35,ES,1619444469
Bocas del Toro,9.3333,-82.25,21.67,41,100,2.24,PA,1619444469
Crailsheim,49.1344,10.0719,13.33,35,0,3.6,DE,1619444469
Pangkalanbuun,-2.6833,111.6167,24.23,95,99,1.25,ID,1619444470
Solnechnyy,50.7214,136.6319,4.69,57,64,2.16,RU,1619444470
Zhangaözen,43.3,52.8,24.63,31,5,6.52,KZ,1619444470
Iglesias,39.3114,8.535,21.0,72,20,7.2,IT,1619444471
Gahanna,40.0192,-82.8793,10.56,66,40,4.12,US,1619444471
Terrace Bay,48.7834,-87.1,1.0,74,40,2.57,CA,1619444471
Erzin,36.9559,36.2,20.56,80,0,5.36,TR,1619444472
Vao,-22.6667,167.4833,23.17,70,81,9.55,NC,1619444472
Omsukchan,62.5333,155.8,-19.88,98,26,1.75,RU,1619444472
Tessalit,20.1986,1.0114,40.92,4,7,2.19,ML,1619444472
Port Macquarie,-31.4333,152.9167,13.33,99,7,0.45,AU,1619444425
Margate,51.3813,1.3862,8.89,53,100,2.24,GB,1619444473
Sørland,67.667,12.6934,3.0,75,75,6.69,NO,1619444473
Cassilândia,-19.1133,-51.7342,29.27,36,70,1.17,BR,1619444275
Fortuna,40.5982,-124.1573,7.78,93,90,3.09,US,1619444474
Virden,39.5009,-89.7679,15.0,72,0,4.47,US,1619444474
Russell,32.3502,-85.1999,15.56,93,1,2.08,US,1619444474
Ajdabiya,30.7554,20.2263,22.74,38,0,4.78,LY,1619444475
Ahipara,-35.1667,173.1667,13.65,81,7,2.6,NZ,1619444475
Muli,2.9167,73.5667,28.76,70,87,2.61,MV,1619444475
Wanning,18.8003,110.3967,25.05,90,91,2.36,CN,1619444476
Lyubymivka,46.8106,33.5686,9.88,73,93,7.65,UA,1619444476
Vardø,70.3705,31.1107,2.0,75,0,5.14,NO,1619444476
Sangar,63.9242,127.4739,-1.77,98,100,0.64,RU,1619444477
Gawler,-34.6,138.7333,13.89,73,0,3.13,AU,1619444477
Shizunai-furukawachō,42.3339,142.3669,2.2,70,0,5.14,JP,1619444477
Teluknaga,-6.0989,106.6381,29.44,78,20,3.09,ID,1619444478
Vetluga,57.8557,45.781,5.74,77,97,6.05,RU,1619444478
Barguzin,53.6167,109.6167,-2.48,87,14,2.73,RU,1619444478
Bengkulu,-3.8004,102.2655,25.85,88,51,2.61,ID,1619444479
Qinhuangdao,39.9317,119.5883,9.51,82,19,4.37,CN,1619444479
Dāmghān,36.1683,54.348,27.34,22,97,1.34,IR,1619444479
Najrān,17.4924,44.1277,33.0,24,40,4.12,SA,1619444367
Hervey Bay,-25.2986,152.8535,18.33,82,0,3.09,AU,1619444480
Muisne,0.6,-80.0333,25.38,86,100,3.05,EC,1619444480
Dul'durga,50.6761,113.5931,0.74,71,95,14.23,RU,1619444481
La Cruz,23.9167,-106.9,19.44,89,43,0.45,MX,1619444481
Sokoni,-6.4333,39.55,30.0,70,20,7.2,TZ,1619444481
Richards Bay,-28.783,32.0377,23.59,69,0,2.88,ZA,1619444482
Port Said,31.2565,32.2841,22.0,53,0,4.63,EG,1619444482
Diok’nisi,41.6293,42.3917,12.0,93,90,6.69,GE,1619444482
Sabang,5.8933,95.3214,28.48,75,100,5.84,ID,1619444483
Changji,44.0167,87.3167,15.0,36,0,5.0,CN,1619444483
Mednogorsk,51.4128,57.595,8.66,80,100,2.09,RU,1619444483
Beibei,29.8256,106.4339,20.0,73,0,3.0,CN,1619444483
Qasigiannguit,68.8193,-51.1922,9.0,43,75,9.26,GL,1619444484
Chapais,49.7834,-74.8492,-6.0,93,90,4.63,CA,1619444484
Nouakchott,18.0858,-15.9785,31.0,30,0,4.63,MR,1619444484
La Ronge,55.1001,-105.2842,1.0,51,64,3.6,CA,1619444485
Belle Fourche,44.6714,-103.8522,7.78,100,75,1.52,US,1619444485
Altamont,42.2068,-121.7372,1.0,80,90,3.09,US,1619444291
San Carlos,9.6612,-68.5827,31.9,43,100,2.39,VE,1619444389
Macao,22.2006,113.5461,24.0,83,40,6.17,MO,1619444486
Hazorasp,41.3194,61.0742,32.0,11,0,6.17,UZ,1619444486
Torrington,41.8007,-73.1212,5.56,63,19,5.36,US,1619444486
Bud,39.447,-86.1758,11.67,62,1,3.09,US,1619444487
Taunsa,30.7048,70.6505,35.97,12,0,1.14,PK,1619444487
Farmington,36.7281,-108.2187,9.0,23,1,3.6,US,1619444317
Vila Velha,-20.3297,-40.2925,29.0,70,0,3.6,BR,1619444487
Tiznit Province,29.5833,-9.5,20.66,46,85,5.9,MA,1619444488
Marsá Maţrūḩ,31.3525,27.2453,20.0,64,0,6.17,EG,1619444488
Burns Lake,54.2331,-125.7533,-7.0,93,5,1.17,CA,1619444488
La Paz,-16.5,-68.15,8.0,19,20,1.03,BO,1619444414
Tezu,27.9167,96.1667,26.99,22,60,2.59,IN,1619444489
Estelle,29.8458,-90.1067,22.78,73,12,0.89,US,1619444489
Bandi̇̄pur,27.9333,84.4167,23.12,12,0,1.3,NP,1619444489
College Station,30.628,-96.3344,19.44,88,90,5.66,US,1619444487
Makakilo City,21.3469,-158.0858,23.0,73,1,1.54,US,1619444490
Ubari,26.5921,12.7805,36.97,10,4,4.61,LY,1619444490
Roshchino,60.2519,29.6085,6.67,87,75,4.0,RU,1619444490
Portland,45.5234,-122.6762,8.33,87,51,1.03,US,1619444460
Suntar,62.1444,117.6319,-3.94,82,100,4.12,RU,1619444491
Moses Lake,47.1301,-119.2781,3.89,86,1,1.54,US,1619444401
Philadelphia,39.9523,-75.1638,8.89,46,20,9.26,US,1619444241
Cabrobó,-8.5142,-39.31,31.23,46,18,5.19,BR,1619444491
Portoferraio,42.8115,10.3146,16.0,59,0,6.17,IT,1619444492
Ayr,55.4627,-4.6339,11.67,62,40,6.69,GB,1619444492
Ibrā’,22.6906,58.5334,35.9,8,30,7.09,OM,1619444493
Hālol,22.5,73.4667,37.0,23,40,2.57,IN,1619444493
Mel'nikovo,56.5558,84.085,5.75,81,98,3.57,RU,1619444493
Beloha,-25.1667,45.05,28.93,51,11,4.79,MG,1619444494
Bira,49.0,132.4667,6.11,46,23,0.99,RU,1619444494
Husavik,66.0449,-17.3389,3.0,81,40,4.12,IS,1619444494
Jiuquan,39.7432,98.5174,11.96,20,100,6.8,CN,1619444495
Ambanja,-13.6833,48.45,26.35,86,20,1.12,MG,1619444495
La Mira,18.035,-102.3266,25.9,46,100,1.07,MX,1619444495
Bubaque,11.2833,-15.8333,26.23,55,100,4.01,GW,1619444496
Changde,29.0464,111.6783,14.54,91,99,1.04,CN,1619444496
Aksu,41.1231,80.2644,20.34,16,38,2.02,CN,1619444496
Manokwari,-0.8667,134.0833,25.94,82,99,1.43,ID,1619444497
Uyuni,-20.4597,-66.825,6.04,18,0,4.48,BO,1619444497
Axum,14.1245,38.7244,19.13,52,100,3.68,ET,1619444497
Ipil,7.75,122.5167,24.58,86,47,1.15,PH,1619444497
Tarauacá,-8.1614,-70.7656,21.92,99,100,1.28,BR,1619444498
Sirte,31.2089,16.5887,23.36,47,74,7.41,LY,1619444498
Meulaboh,4.1363,96.1285,26.39,83,100,2.21,ID,1619444498
Carbonia,39.1672,8.5222,21.0,72,20,7.2,IT,1619444499
Kupang,-10.1667,123.5833,23.49,63,4,3.38,ID,1619444499
Trujillo,-8.116,-79.03,17.0,100,75,3.09,PE,1619444209
Cauquenes,-35.9671,-72.3225,15.68,54,0,3.06,CL,1619444500
Mehkar,20.1508,76.569,35.02,16,100,1.71,IN,1619444500
Kutum,14.2,24.6667,33.89,5,82,6.15,SD,1619444500
Rocky Mountain House,52.3668,-114.9188,-7.0,93,29,1.81,CA,1619444501
Zhangye,38.9342,100.4517,11.68,22,94,6.97,CN,1619444501
Loandjili,-4.7561,11.8578,31.0,70,40,4.63,CG,1619444502
Avera,33.194,-82.5271,18.0,55,1,4.63,US,1619444502
Angermünde,53.015,13.9992,10.0,35,100,3.51,DE,1619444502
Dawei,14.0833,98.2,26.35,85,100,0.58,MM,1619444502
Revda,56.801,59.9303,10.0,29,0,10.0,RU,1619444503
Marzuq,14.4,46.4667,24.44,58,72,6.13,YE,1619444503
Athabasca,54.7169,-113.2854,-2.0,68,61,1.03,CA,1619444503
Makkaveyevo,51.7533,113.9454,4.0,60,100,5.0,RU,1619444504
Panabá,21.2833,-88.2667,27.69,67,7,3.86,MX,1619444504
Kamenka,51.3223,42.7678,12.78,36,97,4.35,RU,1619444504
Mana,5.6592,-53.7767,26.56,87,100,4.48,GF,1619444505
Kumul,42.8,93.45,13.38,12,26,3.39,CN,1619444505
Djibouti,11.5,42.5,26.0,78,75,4.12,DJ,1619444505
Ukiah,39.1502,-123.2078,3.0,93,40,1.21,US,1619444506
Srīvardhan,18.0333,73.0167,29.05,71,5,1.62,IN,1619444506
Yerbogachën,61.2767,108.0108,-6.76,73,91,4.65,RU,1619444506
Chabahar,25.2919,60.643,29.64,60,11,4.16,IR,1619444507
Vila,42.0304,-8.1588,16.67,74,93,0.45,PT,1619444507
Sambava,-14.2667,50.1667,26.59,79,16,4.98,MG,1619444507
Muroto-misakicho,33.2833,134.15,14.79,57,84,4.4,JP,1619444508
Sanchazi,42.0817,126.6003,11.04,66,100,3.75,CN,1619444508
Maniitsoq,65.4167,-52.9,1.04,97,100,2.49,GL,1619444508
Bhīmunipatnam,17.8833,83.4333,30.0,74,20,3.6,IN,1619444509
Paamiut,61.994,-49.6678,1.75,98,100,4.12,GL,1619444509
Korem,12.5058,39.5228,14.39,70,100,2.09,ET,1619444509
Nipawin,53.3668,-104.0009,1.0,86,20,4.12,CA,1619444510
Puerto Santander,8.3636,-72.4063,26.0,83,40,2.57,CO,1619444510
Genhe,50.7833,121.5167,6.75,56,100,1.44,CN,1619444510
Mata,40.683,-7.4592,16.11,85,79,1.79,PT,1619444511
Cap Malheureux,-19.9842,57.6142,23.89,91,100,2.24,MU,1619444511
Lodwar,3.1191,35.5973,32.85,36,100,5.16,KE,1619444511
Praia da Vitória,38.7333,-27.0667,18.33,67,40,3.74,PT,1619444316
San Jose,37.3394,-121.895,7.22,87,40,2.06,US,1619444427
Zig,40.127,-92.7663,15.0,72,1,9.77,US,1619444512
Gigmoto,13.7796,124.39,24.81,83,80,3.4,PH,1619444512
Chara,56.9064,118.2631,-1.15,90,100,2.03,RU,1619444513
Kanaya,34.8167,138.1333,13.33,69,0,0.89,JP,1619444513
Nassau,40.7507,-73.5829,8.33,45,1,5.66,US,1619444513
Kasama,-10.2129,31.1808,22.78,71,98,0.66,ZM,1619444514
Santoña,43.4439,-3.4576,17.22,88,40,2.06,ES,1619444514
Talara,-4.5772,-81.2719,22.0,73,75,7.72,PE,1619444514
Killybegs,54.6333,-8.45,15.56,71,0,3.6,IE,1619444515
Mergen,49.1833,125.2167,14.93,23,100,7.08,CN,1619444515
Baza,37.4117,-2.7641,13.33,49,100,1.79,ES,1619444515
Kiama,-34.6833,150.8667,13.33,90,14,0.45,AU,1619444516
Daitari,21.1,85.75,29.06,43,86,3.84,IN,1619444516
Turtas,58.9417,69.1325,7.81,57,63,2.51,RU,1619444516
Dryden,49.7833,-92.7503,2.0,60,90,5.14,CA,1619444389
Hofn,64.2539,-15.2082,8.0,49,20,10.8,IS,1619444517
Kousséri,12.0769,15.0306,42.0,15,20,2.06,CM,1619444517
Ganzhou,28.8184,115.4327,17.73,96,100,0.83,CN,1619444518
Balkhash,46.844,74.9804,13.94,32,100,2.07,KZ,1619444518
Santa Isabel,-23.3156,-46.2214,21.0,78,90,2.06,BR,1619444518
Yuanping,38.7153,112.7575,12.77,15,100,3.36,CN,1619444519
Beroroha,-21.6667,45.1667,29.9,45,97,2.92,MG,1619444519
Kavaratti,10.5669,72.642,29.65,68,0,2.39,IN,1619444520
Florence,43.7667,11.25,23.33,33,0,2.06,IT,1619444405
Nador,35.174,-2.9287,21.0,60,20,3.6,MA,1619444520
Aloleng,16.1307,119.7824,26.85,73,83,1.63,PH,1619444520
Waipawa,-41.4122,175.5153,14.0,77,20,5.66,NZ,1619444521
Sinjār,36.3209,41.8754,33.94,12,72,8.63,IQ,1619444521
Alugan,12.2188,125.4808,25.23,77,8,3.16,PH,1619444522
Gatton,-27.55,152.2833,16.11,82,75,1.54,AU,1619444522
Severo-Yeniseyskiy,60.3725,93.0408,-3.22,93,21,1.4,RU,1619444522
Mīāndoāb,36.9694,46.1027,25.0,22,75,8.23,IR,1619444523
Gejiu,23.306,103.1635,13.55,93,55,2.56,CN,1619444523
Valparaíso,-33.0393,-71.6273,12.0,100,0,1.21,CL,1619444523
Auki,-8.7676,160.7034,26.26,87,100,2.91,SB,1619444524
Macusani,-14.0833,-70.4333,6.82,54,6,0.66,PE,1619444524
Oistins,13.0667,-59.5333,27.0,61,75,9.26,BB,1619444525
Barmstedt,53.7833,9.7667,12.22,34,0,1.03,DE,1619444525
Laas,46.6166,10.7002,13.0,71,75,3.6,IT,1619444525
Pacific Grove,36.6177,-121.9166,8.89,87,20,1.54,US,1619444526
Goderich,43.7501,-81.7165,1.0,60,35,3.6,CA,1619444526
Raudeberg,61.9875,5.1352,8.0,49,20,3.09,NO,1619444526
Kiruna,67.8557,20.2251,2.0,60,75,5.14,SE,1619444527
Kandyagash,49.4744,57.4233,13.14,74,100,7.43,KZ,1619444527
Pitimbu,-7.4706,-34.8086,30.0,70,40,4.12,BR,1619444528
Sovetskiy,61.3614,63.5842,8.41,42,100,4.5,RU,1619444528
Gushikawa,26.3544,127.8686,21.0,72,1,2.57,JP,1619444528
Dauphin,51.1494,-100.0502,4.0,81,90,2.06,CA,1619444529
Sayyan,15.1718,44.3244,16.58,54,100,2.22,YE,1619444529
Churapcha,62.0025,132.4325,0.04,98,100,3.29,RU,1619444529
Kelo,9.3086,15.8066,39.64,18,86,4.09,TD,1619444530
Honiara,-9.4333,159.95,25.37,88,76,1.96,SB,1619444530
Alim,9.5649,122.4876,26.98,78,30,0.95,PH,1619444530
Tolstoy-Yurt,43.4444,45.7722,16.0,77,75,4.0,RU,1619444531
Dodge City,37.7528,-100.0171,17.22,47,1,7.2,US,1619444531
Shiraz,29.6036,52.5388,27.0,14,75,5.14,IR,1619444285
Mutoko,-17.397,32.2268,26.81,26,3,2.82,ZW,1619444531
Idlib,35.9306,36.6339,24.0,38,0,15.95,SY,1619444532
Nesbyen,60.5681,9.1027,3.89,39,6,1.44,NO,1619444532
Grand-Santi,4.25,-54.3833,26.22,87,100,1.02,GF,1619444532
Guadalupe y Calvo,26.1,-106.9667,11.8,23,43,1.78,MX,1619444533
Ketchikan,55.3422,-131.6461,0.0,80,1,0.71,US,1619444533
Abu Kamal,34.4506,40.9171,38.02,7,96,8.31,SY,1619444533
Chisec,15.8167,-90.2833,18.0,94,20,0.98,GT,1619444534
La Roda,39.2167,-2.15,16.67,72,75,4.63,ES,1619444534
Henties Bay,-22.116,14.2845,19.44,80,3,2.24,NA,1619444534
Ol'ga,43.7444,135.2892,5.67,56,100,1.78,RU,1619444535
Lake Charles,30.2131,-93.2044,20.0,100,75,1.54,US,1619444535
Esna,25.2934,32.554,35.0,15,0,3.6,EG,1619444535
Zhoucheng,35.9122,116.3117,12.41,93,59,2.89,CN,1619444536
Edson,53.5835,-116.4356,-6.0,86,1,2.57,CA,1619444536
Abalak,58.1286,68.5944,9.48,37,39,3.9,RU,1619444536
Kindu,-2.95,25.95,32.72,42,73,0.92,CD,1619444537
Malartic,48.1335,-78.1328,-4.0,54,20,4.12,CA,1619444537
Sibolga,1.7427,98.7792,26.34,85,100,0.71,ID,1619444537
Ascension,30.2169,-90.9001,19.0,88,36,2.83,US,1619444538
Vikulovo,56.8167,70.6107,10.36,33,83,4.38,RU,1619444538
São José da Coroa Grande,-8.8978,-35.1478,28.75,67,42,3.96,BR,1619444538
Maceió,-9.6658,-35.7353,29.0,70,75,3.09,BR,1619444539
Baghmara,23.795,86.2085,33.77,5,51,4.22,IN,1619444539
Zhangjiakou,40.81,114.8794,13.54,11,89,7.04,CN,1619444540
Alice Springs,-23.7,133.8833,14.0,38,0,2.57,AU,1619444433
Ilulissat,69.2167,-51.1,9.0,43,75,9.26,GL,1619444540
Cabatuan,10.8794,122.486,25.15,82,39,3.08,PH,1619444540
Salisbury,51.0693,-1.7957,13.89,43,0,3.6,GB,1619444541
Mbanza-Ngungu,-5.25,14.8667,26.61,75,97,0.65,CD,1619444541
Gilgit,35.9221,74.3087,18.6,32,9,0.98,PK,1619444542
Haicheng,40.8516,122.7475,13.7,50,92,3.87,CN,1619444542
Agüimes,27.9054,-15.4461,21.11,68,75,5.14,ES,1619444542
Ormož,46.4114,16.1544,9.0,66,90,2.06,SI,1619444543
Pochutla,15.7432,-96.4661,26.67,78,75,0.71,MX,1619444543
Oktyabr'skiy,54.4815,53.471,10.73,49,99,5.34,RU,1619444543
Norfolk,42.1668,-71.2495,9.0,43,1,7.72,US,1619444543
Isangel,-19.55,169.2667,24.65,79,100,5.18,VU,1619444544
Port-Gentil,-0.7193,8.7815,32.0,70,40,5.66,GA,1619444399
Yangambi,0.8102,24.4336,33.91,37,29,0.4,CD,1619444544
Mogadishu,2.0371,45.3438,31.0,62,40,4.63,SO,1619444545
Nantucket,41.2835,-70.0995,9.0,61,1,9.26,US,1619444545
Guangzhou,23.1167,113.25,23.33,94,90,3.0,CN,1619444545
Ixtapa,20.7,-105.2,23.89,88,90,1.54,MX,1619444546
Natal,-5.795,-35.2094,30.0,62,75,7.2,BR,1619444546
Araouane,18.9048,-3.5265,40.35,8,96,1.31,ML,1619444546
Agadez,19.75,10.25,39.97,6,0,2.83,NE,1619444547
Bom Jesus,-9.0744,-44.3586,31.7,48,98,2.48,BR,1619444547
Andra,62.5147,65.8878,7.53,57,100,3.51,RU,1619444547
Talcahuano,-36.7167,-73.1167,13.0,82,40,4.63,CL,1619444548
PEMEX,18.4395,-96.3461,27.71,65,9,0.76,MX,1619444548
Gobabis,-22.45,18.9667,26.99,17,0,5.41,NA,1619444548
El Batey,19.7667,-70.5167,27.0,74,20,3.6,DO,1619444549
Viedma,-40.8135,-62.9967,16.76,50,23,6.39,AR,1619444549
Giddalūr,15.35,78.9167,32.3,31,59,6.09,IN,1619444549
Sălacea,47.4667,22.3167,12.0,32,0,2.06,RO,1619444549
Labuan,5.2767,115.2417,27.0,89,20,2.71,MY,1619444550
Maibong,25.3,93.1667,26.57,35,43,1.11,IN,1619444550
